[
    
    {
        "id": 1905412,
        "name": "Tỉnh Bắc Ninh",
        "state": "",
        "country": "VN",
        "coord": {
            "lon": 106.166672,
            "lat": 21.08333
        }
    },
    {
        "id": 1905419,
        "name": "Tỉnh Bắc Giang",
        "state": "",
        "country": "VN",
        "coord": {
            "lon": 106.333328,
            "lat": 21.33333
        }
    },
    {
        "id": 1905468,
        "name": "Tỉnh Ðà Nẵng",
        "state": "",
        "country": "VN",
        "coord": {
            "lon": 108.083328,
            "lat": 16.08333
        }
    },
    {
        "id": 1905475,
        "name": "Tỉnh Bình Dương",
        "state": "",
        "country": "VN",
        "coord": {
            "lon": 106.666672,
            "lat": 11.16667
        }
    },
    {
        "id": 1905480,
        "name": "Tỉnh Bình Phước",
        "state": "",
        "country": "VN",
        "coord": {
            "lon": 106.916672,
            "lat": 11.75
        }
    },
    {
        "id": 1905497,
        "name": "Tỉnh Thái Nguyên",
        "state": "",
        "country": "VN",
        "coord": {
            "lon": 105.833328,
            "lat": 21.66667
        }
    },
    {
        "id": 1905516,
        "name": "Tỉnh Quảng Nam",
        "state": "",
        "country": "VN",
        "coord": {
            "lon": 107.916672,
            "lat": 15.58333
        }
    },
    {
        "id": 1905577,
        "name": "Tỉnh Phú Thọ",
        "state": "",
        "country": "VN",
        "coord": {
            "lon": 105.166672,
            "lat": 21.33333
        }
    },
    {
        "id": 1905626,
        "name": "Tỉnh Nam Ðịnh",
        "state": "",
        "country": "VN",
        "coord": {
            "lon": 106.25,
            "lat": 20.25
        }
    },
    {
        "id": 1905637,
        "name": "Tỉnh Hà Nam",
        "state": "",
        "country": "VN",
        "coord": {
            "lon": 106.0,
            "lat": 20.58333
        }
    },
    {
        "id": 1905669,
        "name": "Tỉnh Bắc Kạn",
        "state": "",
        "country": "VN",
        "coord": {
            "lon": 105.833328,
            "lat": 22.16667
        }
    },
    {
        "id": 1905675,
        "name": "Tỉnh Bạc Liêu",
        "state": "",
        "country": "VN",
        "coord": {
            "lon": 105.75,
            "lat": 9.25
        }
    },
    {
        "id": 1905678,
        "name": "Tỉnh Cà Mau",
        "state": "",
        "country": "VN",
        "coord": {
            "lon": 105.083328,
            "lat": 9.08333
        }
    },
    {
        "id": 1905686,
        "name": "Tỉnh Hải Dương",
        "state": "",
        "country": "VN",
        "coord": {
            "lon": 106.333328,
            "lat": 20.91667
        }
    },
    {
        "id": 1905699,
        "name": "Tỉnh Hưng Yên",
        "state": "",
        "country": "VN",
        "coord": {
            "lon": 106.083328,
            "lat": 20.83333
        }
    },
    {
        "id": 1905856,
        "name": "Tỉnh Vĩnh Phúc",
        "state": "",
        "country": "VN",
        "coord": {
            "lon": 105.599998,
            "lat": 21.299999
        }
    },
    {
        "id": 1559969,
        "name": "Tỉnh Nghệ An",
        "state": "",
        "country": "VN",
        "coord": {
            "lon": 104.833328,
            "lat": 19.33333
        }
    },
    {
        "id": 1559970,
        "name": "Tỉnh Ninh Bình",
        "state": "",
        "country": "VN",
        "coord": {
            "lon": 105.833328,
            "lat": 20.25
        }
    },
    {
        "id": 1559971,
        "name": "Tỉnh Ninh Thuận",
        "state": "",
        "country": "VN",
        "coord": {
            "lon": 108.833328,
            "lat": 11.75
        }
    },
    {
        "id": 1559972,
        "name": "Tỉnh Sóc Trăng",
        "state": "",
        "country": "VN",
        "coord": {
            "lon": 105.833328,
            "lat": 9.66667
        }
    },
    {
        "id": 1559975,
        "name": "Tỉnh Trà Vinh",
        "state": "",
        "country": "VN",
        "coord": {
            "lon": 106.25,
            "lat": 9.83333
        }
    },
    {
        "id": 1559976,
        "name": "Tỉnh Tuyên Quang",
        "state": "",
        "country": "VN",
        "coord": {
            "lon": 105.25,
            "lat": 22.116671
        }
    },
    {
        "id": 1559977,
        "name": "Tỉnh Vĩnh Long",
        "state": "",
        "country": "VN",
        "coord": {
            "lon": 106.0,
            "lat": 10.16667
        }
    },
    {
        "id": 1559978,
        "name": "Tỉnh Yên Bái",
        "state": "",
        "country": "VN",
        "coord": {
            "lon": 104.666672,
            "lat": 21.5
        }
    },
    {
        "id": 1560678,
        "name": "Xóm Yân Lạc Hâu",
        "state": "",
        "country": "VN",
        "coord": {
            "lon": 105.666672,
            "lat": 18.73333
        }
    },
    {
        "id": 1562412,
        "name": "Tỉnh Lào Cai",
        "state": "",
        "country": "VN",
        "coord": {
            "lon": 104.0,
            "lat": 22.33333
        }
    },
    {
        "id": 1562414,
        "name": "Vung Tau",
        "state": "",
        "country": "VN",
        "coord": {
            "lon": 107.084259,
            "lat": 10.34599
        }
    },
    {
        "id": 1562548,
        "name": "Vinh Yen",
        "state": "",
        "country": "VN",
        "coord": {
            "lon": 105.596672,
            "lat": 21.309999
        }
    },
    {
        "id": 1562693,
        "name": "Vinh Long",
        "state": "",
        "country": "VN",
        "coord": {
            "lon": 105.966667,
            "lat": 10.25
        }
    },
    {
        "id": 1562798,
        "name": "Vinh",
        "state": "",
        "country": "VN",
        "coord": {
            "lon": 105.666672,
            "lat": 18.66667
        }
    },
    {
        "id": 1563281,
        "name": "Tuy Hoa",
        "state": "",
        "country": "VN",
        "coord": {
            "lon": 109.300003,
            "lat": 13.08333
        }
    },
    {
        "id": 1563287,
        "name": "Tuyen Quang",
        "state": "",
        "country": "VN",
        "coord": {
            "lon": 105.218063,
            "lat": 21.82333
        }
    },
    {
        "id": 1563926,
        "name": "Tra Vinh",
        "state": "",
        "country": "VN",
        "coord": {
            "lon": 106.345284,
            "lat": 9.93472
        }
    },
    {
        "id": 1564676,
        "name": "Tỉnh Tiền Giang",
        "state": "",
        "country": "VN",
        "coord": {
            "lon": 106.166672,
            "lat": 10.41667
        }
    },
    {
        "id": 1565033,
        "name": "Tỉnh Thừa Thiên-Huế",
        "state": "",
        "country": "VN",
        "coord": {
            "lon": 107.583328,
            "lat": 16.33333
        }
    },
    {
        "id": 1565088,
        "name": "Tỉnh Kon Tum",
        "state": "",
        "country": "VN",
        "coord": {
            "lon": 107.916672,
            "lat": 14.75
        }
    },
    {
        "id": 1566083,
        "name": "Thanh pho Ho Chi Minh",
        "state": "",
        "country": "VN",
        "coord": {
            "lon": 106.666672,
            "lat": 10.75
        }
    },
    {
        "id": 1566165,
        "name": "Tỉnh Thanh Hóa",
        "state": "",
        "country": "VN",
        "coord": {
            "lon": 105.5,
            "lat": 20.0
        }
    },
    {
        "id": 1566319,
        "name": "Thai Nguyen",
        "state": "",
        "country": "VN",
        "coord": {
            "lon": 105.84417,
            "lat": 21.592779
        }
    },
    {
        "id": 1566338,
        "name": "Tỉnh Thái Bình",
        "state": "",
        "country": "VN",
        "coord": {
            "lon": 106.333328,
            "lat": 20.5
        }
    },
    {
        "id": 1566557,
        "name": "Tỉnh Tây Ninh",
        "state": "",
        "country": "VN",
        "coord": {
            "lon": 106.166672,
            "lat": 11.33333
        }
    },
    {
        "id": 1567643,
        "name": "Tỉnh Sơn La",
        "state": "",
        "country": "VN",
        "coord": {
            "lon": 104.0,
            "lat": 21.16667
        }
    },
    {
        "id": 1567788,
        "name": "Soc Trang",
        "state": "",
        "country": "VN",
        "coord": {
            "lon": 105.980003,
            "lat": 9.60333
        }
    },
    {
        "id": 1568733,
        "name": "Tỉnh Quảng Trị",
        "state": "",
        "country": "VN",
        "coord": {
            "lon": 107.0,
            "lat": 16.75
        }
    },
    {
        "id": 1568758,
        "name": "Tỉnh Quảng Ninh",
        "state": "",
        "country": "VN",
        "coord": {
            "lon": 107.333328,
            "lat": 21.25
        }
    },
    {
        "id": 1568769,
        "name": "Tỉnh Quảng Ngãi",
        "state": "",
        "country": "VN",
        "coord": {
            "lon": 108.666672,
            "lat": 15.0
        }
    },
    {
        "id": 1568770,
        "name": "Quang Ngai",
        "state": "",
        "country": "VN",
        "coord": {
            "lon": 108.800003,
            "lat": 15.11667
        }
    },
    {
        "id": 1568839,
        "name": "Tỉnh Quảng Bình",
        "state": "",
        "country": "VN",
        "coord": {
            "lon": 106.333328,
            "lat": 17.5
        }
    },
    {
        "id": 1569805,
        "name": "Tỉnh Phú Yên",
        "state": "",
        "country": "VN",
        "coord": {
            "lon": 109.166672,
            "lat": 13.16667
        }
    },
    {
        "id": 1570449,
        "name": "Phu Ly",
        "state": "",
        "country": "VN",
        "coord": {
            "lon": 105.913887,
            "lat": 20.541109
        }
    },
    {
        "id": 1570565,
        "name": "Phu Hưu",
        "state": "",
        "country": "VN",
        "coord": {
            "lon": 105.533333,
            "lat": 21.01667
        }
    },
    {
        "id": 1570815,
        "name": "Phong Tho",
        "state": "",
        "country": "VN",
        "coord": {
            "lon": 103.349998,
            "lat": 22.533331
        }
    },
    {
        "id": 1571058,
        "name": "Phan Thiet",
        "state": "",
        "country": "VN",
        "coord": {
            "lon": 108.099998,
            "lat": 10.93333
        }
    },
    {
        "id": 1571067,
        "name": "Phan Rang-Thap Cham",
        "state": "",
        "country": "VN",
        "coord": {
            "lon": 108.98333,
            "lat": 11.56667
        }
    },
    {
        "id": 1571968,
        "name": "Ninh Binh",
        "state": "",
        "country": "VN",
        "coord": {
            "lon": 105.974998,
            "lat": 20.253889
        }
    },
    {
        "id": 1572151,
        "name": "Nha Trang",
        "state": "",
        "country": "VN",
        "coord": {
            "lon": 109.183327,
            "lat": 12.25
        }
    },
    {
        "id": 1572594,
        "name": "Tỉnh Hòa Bình",
        "state": "",
        "country": "VN",
        "coord": {
            "lon": 105.25,
            "lat": 20.33333
        }
    },
    {
        "id": 1573517,
        "name": "Nam Dinh",
        "state": "",
        "country": "VN",
        "coord": {
            "lon": 106.166672,
            "lat": 20.41667
        }
    },
    {
        "id": 1575788,
        "name": "Tỉnh Long An",
        "state": "",
        "country": "VN",
        "coord": {
            "lon": 106.166672,
            "lat": 10.66667
        }
    },
    {
        "id": 1576303,
        "name": "Lao Cai",
        "state": "",
        "country": "VN",
        "coord": {
            "lon": 103.949997,
            "lat": 22.48333
        }
    },
    {
        "id": 1576632,
        "name": "Tỉnh Lạng Sơn",
        "state": "",
        "country": "VN",
        "coord": {
            "lon": 106.5,
            "lat": 21.75
        }
    },
    {
        "id": 1577882,
        "name": "Tỉnh Lâm Ðồng",
        "state": "",
        "country": "VN",
        "coord": {
            "lon": 108.333328,
            "lat": 11.5
        }
    },
    {
        "id": 1579008,
        "name": "Tỉnh Kiến Giang",
        "state": "",
        "country": "VN",
        "coord": {
            "lon": 105.166672,
            "lat": 10.0
        }
    },
    {
        "id": 1579634,
        "name": "Tỉnh Khánh Hòa",
        "state": "",
        "country": "VN",
        "coord": {
            "lon": 109.0,
            "lat": 12.33333
        }
    },
    {
        "id": 1580142,
        "name": "Hung Yen",
        "state": "",
        "country": "VN",
        "coord": {
            "lon": 106.066673,
            "lat": 20.65
        }
    },
    {
        "id": 1580240,
        "name": "Hue",
        "state": "",
        "country": "VN",
        "coord": {
            "lon": 107.599998,
            "lat": 16.466669
        }
    },
    {
        "id": 1580541,
        "name": "Hoi An",
        "state": "",
        "country": "VN",
        "coord": {
            "lon": 108.334999,
            "lat": 15.87944
        }
    },
    {
        "id": 1580578,
        "name": "Thành phố Hồ Chí Minh",
        "state": "",
        "country": "VN",
        "coord": {
            "lon": 106.666672,
            "lat": 10.83333
        }
    },
    {
        "id": 1580700,
        "name": "Tỉnh Hà Tĩnh",
        "state": "",
        "country": "VN",
        "coord": {
            "lon": 105.75,
            "lat": 18.33333
        }
    },
    {
        "id": 1581019,
        "name": "Tỉnh Hà Tây",
        "state": "",
        "country": "VN",
        "coord": {
            "lon": 105.666672,
            "lat": 20.83333
        }
    },
    {
        "id": 1581030,
        "name": "Tỉnh Hà Giang",
        "state": "",
        "country": "VN",
        "coord": {
            "lon": 105.0,
            "lat": 22.75
        }
    },
    {
        "id": 1581047,
        "name": "Ha Tinh",
        "state": "",
        "country": "VN",
        "coord": {
            "lon": 105.900002,
            "lat": 18.33333
        }
    },
    {
        "id": 1581088,
        "name": "Tỉnh Gia Lai",
        "state": "",
        "country": "VN",
        "coord": {
            "lon": 108.25,
            "lat": 13.75
        }
    },
    {
        "id": 1581129,
        "name": "Thủ Ðô Hà Nội",
        "state": "",
        "country": "VN",
        "coord": {
            "lon": 105.883331,
            "lat": 21.116671
        }
    },
    {
        "id": 1581188,
        "name": "Tỉnh Cần Thơ",
        "state": "",
        "country": "VN",
        "coord": {
            "lon": 105.666672,
            "lat": 9.83333
        }
    },
    {
        "id": 1581297,
        "name": "Thành Phố Hải Phòng",
        "state": "",
        "country": "VN",
        "coord": {
            "lon": 106.583328,
            "lat": 20.83333
        }
    },
    {
        "id": 1581326,
        "name": "Tỉnh Hải Dương",
        "state": "",
        "country": "VN",
        "coord": {
            "lon": 106.316673,
            "lat": 20.933331
        }
    },
    {
        "id": 1581882,
        "name": "Tỉnh Bình Thuận",
        "state": "",
        "country": "VN",
        "coord": {
            "lon": 108.0,
            "lat": 11.08333
        }
    },
    {
        "id": 1582562,
        "name": "Tỉnh Ðồng Tháp",
        "state": "",
        "country": "VN",
        "coord": {
            "lon": 105.666672,
            "lat": 10.66667
        }
    },
    {
        "id": 1582720,
        "name": "Tỉnh Ðồng Nai",
        "state": "",
        "country": "VN",
        "coord": {
            "lon": 107.166672,
            "lat": 11.0
        }
    },
    {
        "id": 1584169,
        "name": "Tỉnh Ðắc Lắk",
        "state": "",
        "country": "VN",
        "coord": {
            "lon": 108.166672,
            "lat": 12.83333
        }
    },
    {
        "id": 1584534,
        "name": "Tỉnh Bà Rịa-Vũng Tàu",
        "state": "",
        "country": "VN",
        "coord": {
            "lon": 107.25,
            "lat": 10.58333
        }
    }
]